[
  {"name": "Karachi", "lat": 24.8607, "lng": 67.0011},
  {"name": "Lahore", "lat": 31.5204, "lng": 74.3587},
  {"name": "Islamabad", "lat": 33.6844, "lng": 73.0479},
  {"name": "Rawalpindi", "lat": 33.5651, "lng": 73.0169},
  {"name": "Faisalabad", "lat": 31.418, "lng": 73.0791},
  {"name": "Multan", "lat": 30.1575, "lng": 71.5249},
  {"name": "Peshawar", "lat": 34.0151, "lng": 71.5249},
  {"name": "Quetta", "lat": 30.1798, "lng": 66.975},
  {"name": "Sialkot", "lat": 32.4945, "lng": 74.5229},
  {"name": "Gujranwala", "lat": 32.1877, "lng": 74.1945},
  {"name": "Hyderabad", "lat": 25.396, "lng": 68.3578},
  {"name": "Sukkur", "lat": 27.7052, "lng": 68.8574},
  {"name": "Larkana", "lat": 27.559, "lng": 68.212},
  {"name": "Bahawalpur", "lat": 29.3956, "lng": 71.6722},
  {"name": "Sargodha", "lat": 32.0836, "lng": 72.6711},
  {"name": "Sheikhupura", "lat": 31.7167, "lng": 73.985},
  {"name": "Jhang", "lat": 31.2692, "lng": 72.318},
  {"name": "Gujrat", "lat": 32.5742, "lng": 74.0754},
  {"name": "Kasur", "lat": 31.1167, "lng": 74.45},
  {"name": "Mardan", "lat": 34.1989, "lng": 72.0408},
  {"name": "Mingora", "lat": 34.7717, "lng": 72.36},
  {"name": "Nawabshah", "lat": 26.2442, "lng": 68.41},
  {"name": "Chiniot", "lat": 31.72, "lng": 72.978},
  {"name": "Kotri", "lat": 25.365, "lng": 68.308},
  {"name": "Kamoke", "lat": 31.975, "lng": 74.223},
  {"name": "Hafizabad", "lat": 32.0709, "lng": 73.688},
  {"name": "Kohat", "lat": 33.5869, "lng": 71.4425},
  {"name": "Jacobabad", "lat": 28.2819, "lng": 68.4386},
  {"name": "Shikarpur", "lat": 27.9556, "lng": 68.6382},
  {"name": "Muzaffargarh", "lat": 30.1575, "lng": 71.1989},
  {"name": "Khanpur", "lat": 28.6474, "lng": 70.6569},
  {"name": "Gojra", "lat": 31.1498, "lng": 72.6832},
  {"name": "Mandi Bahauddin", "lat": 32.587, "lng": 73.4912},
  {"name": "Abbottabad", "lat": 34.1688, "lng": 73.2215},
  {"name": "Turbat", "lat": 26.0031, "lng": 63.05},
  {"name": "Dera Ghazi Khan", "lat": 30.0458, "lng": 70.64},
  {"name": "Okara", "lat": 30.8081, "lng": 73.4458},
  {"name": "Sahiwal", "lat": 30.6667, "lng": 73.1},
  {"name": "Mirpur Khas", "lat": 25.5276, "lng": 69.0126},
  {"name": "Bannu", "lat": 32.985, "lng": 70.604},
  {"name": "Gilgit", "lat": 35.9208, "lng": 74.3144},
  {"name": "Skardu", "lat": 35.2971, "lng": 75.6333},
  {"name": "Muzaffarabad", "lat": 34.37, "lng": 73.47},
  {"name": "Gwadar", "lat": 25.1264, "lng": 62.3225},
  {"name": "Zhob", "lat": 31.3417, "lng": 69.4486},
  {"name": "Chaman", "lat": 30.9177, "lng": 66.4526},
  {"name": "Attock", "lat": 33.7667, "lng": 72.3598},
  {"name": "Vehari", "lat": 30.0445, "lng": 72.3556},
  {"name": "Kot Addu", "lat": 30.4667, "lng": 70.9667},
  {"name": "Wah Cantonment", "lat": 33.7733, "lng": 72.7458},
  {"name": "Taxila", "lat": 33.746, "lng": 72.8361},
  {"name": "Rahim Yar Khan", "lat": 28.42, "lng": 70.3},
  {"name": "Chakwal", "lat": 32.9333, "lng": 72.85},
  {"name": "Khuzdar", "lat": 27.8, "lng": 66.6167},
  {"name": "Pakpattan", "lat": 30.35, "lng": 73.4},
  {"name": "Tando Allahyar", "lat": 25.4625, "lng": 68.7194},
  {"name": "Ahmadpur East", "lat": 29.1427, "lng": 71.2577},
  {"name": "Jhelum", "lat": 32.9333, "lng": 73.7333},
  {"name": "Kamalia", "lat": 30.7333, "lng": 72.65},
  {"name": "Umerkot", "lat": 25.3616, "lng": 69.7362},
  {"name": "Badin", "lat": 24.655, "lng": 68.838},
  {"name": "Thatta", "lat": 24.747, "lng": 67.9235}
]
